[{"coord": {"location": {"lng": 114.28206512211602, "lat": 30.590181831576164}, "precise": 1, "confidence": 70, "comprehension": 100, "level": "\u533b\u7597"}, "address": "\u6e56\u5317\u7701\u6b66\u6c49\u5e02\u6c5f\u6c49\u533a\u89e3\u653e\u5927\u90531277\u53f7\u534e\u4e2d\u79d1\u6280\u5927\u5b66\u540c\u6d4e\u533b\u5b66\u9662\u9644\u5c5e\u534f\u548c\u533b\u9662\u603b\u52a1\u5904", "city": "\u6b66\u6c49\u5e02", "name": "\u534e\u4e2d\u79d1\u6280\u5927\u5b66\u540c\u6d4e\u533b\u5b66\u9662\u9644\u5c5e\u534f\u548c\u533b\u9662", "type": "\u533b\u9662"}, {"coord": {"location": {"lng": 114.6248593356562, "lat": 31.287270971757522}, "precise": 1, "confidence": 80, "comprehension": 100, "level": "\u95e8\u5740"}, "address": "\u7ea2\u5b89\u53bf\u4eba\u6c11\u533b\u9662\u7ea2\u5b89\u53bf\u57ce\u5173\u9547\u9675\u56ed\u5927\u9053\u964450\u53f7", "city": "\u9ec4\u5188\u5e02", "name": "\u7ea2\u5b89\u53bf\u4eba\u6c11\u533b\u9662", "type": "\u533b\u9662"}, {"coord": {"location": {"lng": 114.98104721518062, "lat": 30.104154135135957}, "precise": 1, "confidence": 80, "comprehension": 100, "level": "\u95e8\u5740"}, "address": "\u6e56\u5317\u7701\u5927\u51b6\u5e02\u57ce\u5317\u5f00\u53d1\u533a\u4e1c\u98ce\u8def25\u53f7", "city": "\u9ec4\u77f3\u5e02", "name": "\u5927\u51b6\u5e02\u4eba\u6c11\u533b\u9662", "type": "\u533b\u9662"}, {"coord": {"location": {"lng": 114.98104721518062, "lat": 30.104154135135957}, "precise": 1, "confidence": 80, "comprehension": 100, "level": "\u95e8\u5740"}, "address": "\u6e56\u5317\u7701\u5927\u51b6\u5e02\u57ce\u5317\u5f00\u53d1\u533a\u4e1c\u98ce\u8def25\u53f7", "city": "\u9ec4\u77f3\u5e02", "name": "\u5927\u51b6\u5e02\u4eba\u6c11\u533b\u9662", "type": "\u533b\u9662"}, {"coord": {"location": {"lng": 114.98104721518062, "lat": 30.104154135135957}, "precise": 1, "confidence": 80, "comprehension": 100, "level": "\u95e8\u5740"}, "address": "\u6e56\u5317\u7701\u5927\u51b6\u5e02\u57ce\u5317\u5f00\u53d1\u533a\u4e1c\u98ce\u8def25\u53f7", "city": "\u9ec4\u77f3\u5e02", "name": "\u5927\u51b6\u5e02\u4eba\u6c11\u533b\u9662", "type": "\u533b\u9662"}, {"coord": {"location": {"lng": 114.98104721518062, "lat": 30.104154135135957}, "precise": 1, "confidence": 80, "comprehension": 100, "level": "\u95e8\u5740"}, "address": "\u6e56\u5317\u7701\u5927\u51b6\u5e02\u57ce\u5317\u5f00\u53d1\u533a\u4e1c\u98ce\u8def25\u53f7", "city": "\u9ec4\u77f3\u5e02", "name": "\u5927\u51b6\u5e02\u4eba\u6c11\u533b\u9662", "type": "\u533b\u9662"}, {"coord": {"location": {"lng": 114.98104721518062, "lat": 30.104154135135957}, "precise": 1, "confidence": 80, "comprehension": 100, "level": "\u95e8\u5740"}, "address": "\u6e56\u5317\u7701\u5927\u51b6\u5e02\u57ce\u5317\u5f00\u53d1\u533a\u4e1c\u98ce\u8def25\u53f7", "city": "\u9ec4\u77f3\u5e02", "name": "\u5927\u51b6\u5e02\u4eba\u6c11\u533b\u9662", "type": "\u533b\u9662"}, {"coord": {"location": {"lng": 114.98104721518062, "lat": 30.104154135135957}, "precise": 1, "confidence": 80, "comprehension": 100, "level": "\u95e8\u5740"}, "address": "\u6e56\u5317\u7701\u5927\u51b6\u5e02\u57ce\u5317\u5f00\u53d1\u533a\u4e1c\u98ce\u8def25\u53f7", "city": "\u9ec4\u77f3\u5e02", "name": "\u5927\u51b6\u5e02\u4eba\u6c11\u533b\u9662", "type": "\u533b\u9662"}, {"coord": {"location": {"lng": 114.98104721518062, "lat": 30.104154135135957}, "precise": 1, "confidence": 80, "comprehension": 100, "level": "\u95e8\u5740"}, "address": "\u6e56\u5317\u7701\u5927\u51b6\u5e02\u57ce\u5317\u5f00\u53d1\u533a\u4e1c\u98ce\u8def25\u53f7", "city": "\u9ec4\u77f3\u5e02", "name": "\u5927\u51b6\u5e02\u4eba\u6c11\u533b\u9662", "type": "\u533b\u9662"}, {"coord": {"location": {"lng": 114.98104721518062, "lat": 30.104154135135957}, "precise": 1, "confidence": 80, "comprehension": 100, "level": "\u95e8\u5740"}, "address": "\u6e56\u5317\u7701\u5927\u51b6\u5e02\u57ce\u5317\u5f00\u53d1\u533a\u4e1c\u98ce\u8def25\u53f7", "city": "\u9ec4\u77f3\u5e02", "name": "\u5927\u51b6\u5e02\u4eba\u6c11\u533b\u9662", "type": "\u533b\u9662"}, {"coord": {"location": {"lng": 114.98104721518062, "lat": 30.104154135135957}, "precise": 1, "confidence": 80, "comprehension": 100, "level": "\u95e8\u5740"}, "address": "\u6e56\u5317\u7701\u5927\u51b6\u5e02\u57ce\u5317\u5f00\u53d1\u533a\u4e1c\u98ce\u8def25\u53f7", "city": "\u9ec4\u77f3\u5e02", "name": "\u5927\u51b6\u5e02\u4eba\u6c11\u533b\u9662", "type": "\u533b\u9662"}, {"coord": {"location": {"lng": 114.98104721518062, "lat": 30.104154135135957}, "precise": 1, "confidence": 80, "comprehension": 100, "level": "\u95e8\u5740"}, "address": "\u6e56\u5317\u7701\u5927\u51b6\u5e02\u57ce\u5317\u5f00\u53d1\u533a\u4e1c\u98ce\u8def25\u53f7", "city": "\u9ec4\u77f3\u5e02", "name": "\u5927\u51b6\u5e02\u4eba\u6c11\u533b\u9662", "type": "\u533b\u9662"}, {"coord": {"location": {"lng": 114.98104721518062, "lat": 30.104154135135957}, "precise": 1, "confidence": 80, "comprehension": 100, "level": "\u95e8\u5740"}, "address": "\u6e56\u5317\u7701\u5927\u51b6\u5e02\u57ce\u5317\u5f00\u53d1\u533a\u4e1c\u98ce\u8def25\u53f7", "city": "\u9ec4\u77f3\u5e02", "name": "\u5927\u51b6\u5e02\u4eba\u6c11\u533b\u9662", "type": "\u533b\u9662"}, {"coord": {"location": {"lng": 110.87697067949573, "lat": 32.57950477739204}, "precise": 1, "confidence": 80, "comprehension": 100, "level": "\u95e8\u5740"}, "address": "\u767d\u6d6a\u4e2d\u8def51\u53f7", "city": "\u5341\u5830\u5e02", "name": "\u82b1\u597d\u6708\u5706\u9152\u5e97", "type": "\u5bbe\u9986"}, {"coord": {"location": {"lng": 110.87697067949573, "lat": 32.57950477739204}, "precise": 1, "confidence": 80, "comprehension": 100, "level": "\u95e8\u5740"}, "address": "\u767d\u6d6a\u4e2d\u8def51\u53f7", "city": "\u5341\u5830\u5e02", "name": "\u82b1\u597d\u6708\u5706\u9152\u5e97", "type": "\u5bbe\u9986"}, {"coord": {"location": {"lng": 110.87697067949573, "lat": 32.57950477739204}, "precise": 1, "confidence": 80, "comprehension": 100, "level": "\u95e8\u5740"}, "address": "\u767d\u6d6a\u4e2d\u8def51\u53f7", "city": "\u5341\u5830\u5e02", "name": "\u82b1\u597d\u6708\u5706\u9152\u5e97", "type": "\u5bbe\u9986"}, {"coord": {"location": {"lng": 110.87697067949573, "lat": 32.57950477739204}, "precise": 1, "confidence": 80, "comprehension": 100, "level": "\u95e8\u5740"}, "address": "\u767d\u6d6a\u4e2d\u8def51\u53f7", "city": "\u5341\u5830\u5e02", "name": "\u82b1\u597d\u6708\u5706\u9152\u5e97", "type": "\u5bbe\u9986"}, {"coord": {"location": {"lng": 110.87697067949573, "lat": 32.57950477739204}, "precise": 1, "confidence": 80, "comprehension": 100, "level": "\u95e8\u5740"}, "address": "\u767d\u6d6a\u4e2d\u8def51\u53f7", "city": "\u5341\u5830\u5e02", "name": "\u82b1\u597d\u6708\u5706\u9152\u5e97", "type": "\u5bbe\u9986"}, {"coord": {"location": {"lng": 110.87697067949573, "lat": 32.57950477739204}, "precise": 1, "confidence": 80, "comprehension": 100, "level": "\u95e8\u5740"}, "address": "\u767d\u6d6a\u4e2d\u8def51\u53f7", "city": "\u5341\u5830\u5e02", "name": "\u82b1\u597d\u6708\u5706\u9152\u5e97", "type": "\u5bbe\u9986"}, {"coord": {"location": {"lng": 110.87697067949573, "lat": 32.57950477739204}, "precise": 1, "confidence": 80, "comprehension": 100, "level": "\u95e8\u5740"}, "address": "\u767d\u6d6a\u4e2d\u8def51\u53f7", "city": "\u5341\u5830\u5e02", "name": "\u82b1\u597d\u6708\u5706\u9152\u5e97", "type": "\u5bbe\u9986"}, {"coord": {"location": {"lng": 114.90314635179611, "lat": 30.38558534479372}, "precise": 1, "confidence": 80, "comprehension": 100, "level": "\u95e8\u5740"}, "address": "\u51e4\u51f0\u8def76\u53f7", "city": "\u9102\u5dde\u5e02", "name": "\u57ce\u5e02\u4fbf\u6377\u9102\u5dde\u83b2\u82b1\u5c71\u5e97", "type": "\u5bbe\u9986"}, {"coord": {"location": {"lng": 114.90314635179611, "lat": 30.38558534479372}, "precise": 1, "confidence": 80, "comprehension": 100, "level": "\u95e8\u5740"}, "address": "\u51e4\u51f0\u8def76\u53f7", "city": "\u9102\u5dde\u5e02", "name": "\u57ce\u5e02\u4fbf\u6377\u9102\u5dde\u83b2\u82b1\u5c71\u5e97", "type": "\u5bbe\u9986"}, {"coord": {"location": {"lng": 114.17820178142465, "lat": 30.625548380031738}, "precise": 1, "confidence": 75, "comprehension": 35, "level": "\u8d2d\u7269"}, "address": "\u6b66\u6c49\u5e02\u785a\u53e3\u533a\u56ed\u535a\u5927\u90533\u53f7\u7ea2\u661f\u7f8e\u51ef\u9f99\u5bb6\u5c45\u5e7f\u573a\u5357\u4fa7\u5199\u5b57\u697c", "city": "\u6b66\u6c49\u5e02", "name": "\u5b9c\u5c1a\u9152\u5e97\u5b9c\u5bb6\u5e97", "type": "\u5bbe\u9986"}, {"coord": {"location": {"lng": 114.17820178142465, "lat": 30.625548380031738}, "precise": 1, "confidence": 75, "comprehension": 35, "level": "\u8d2d\u7269"}, "address": "\u6b66\u6c49\u5e02\u785a\u53e3\u533a\u56ed\u535a\u5927\u90533\u53f7\u7ea2\u661f\u7f8e\u51ef\u9f99\u5bb6\u5c45\u5e7f\u573a\u5357\u4fa7\u5199\u5b57\u697c", "city": "\u6b66\u6c49\u5e02", "name": "\u5b9c\u5c1a\u9152\u5e97\u5b9c\u5bb6\u5e97", "type": "\u5bbe\u9986"}, {"coord": {"location": {"lng": 111.67206595102367, "lat": 32.384523828809655}, "precise": 0, "confidence": 80, "comprehension": 99, "level": "\u95e8\u5740"}, "address": "\u6c49\u6c5f\u5927\u905365\u53f7", "city": "\u8944\u9633\u5e02", "name": "\u57ce\u5e02\u4fbf\u6377\u8944\u9633\u8001\u6cb3\u53e3\u5e97", "type": "\u5bbe\u9986"}, {"coord": {"location": {"lng": 111.67206595102367, "lat": 32.384523828809655}, "precise": 0, "confidence": 80, "comprehension": 99, "level": "\u95e8\u5740"}, "address": "\u6c49\u6c5f\u5927\u905365\u53f7", "city": "\u8944\u9633\u5e02", "name": "\u57ce\u5e02\u4fbf\u6377\u8944\u9633\u8001\u6cb3\u53e3\u5e97", "type": "\u5bbe\u9986"}, {"coord": {"location": {"lng": 111.67206595102367, "lat": 32.384523828809655}, "precise": 0, "confidence": 80, "comprehension": 99, "level": "\u95e8\u5740"}, "address": "\u6c49\u6c5f\u5927\u905365\u53f7", "city": "\u8944\u9633\u5e02", "name": "\u57ce\u5e02\u4fbf\u6377\u8944\u9633\u8001\u6cb3\u53e3\u5e97", "type": "\u5bbe\u9986"}, {"coord": {"location": {"lng": 111.30035417730322, "lat": 30.719618317348786}, "precise": 1, "confidence": 80, "comprehension": 100, "level": "\u95e8\u5740"}, "address": "\u4e1c\u5c71\u5927\u905366\u53f7", "city": "\u5b9c\u660c\u5e02", "name": "\u57ce\u5e02\u4fbf\u6377\u5b9c\u660c\u845b\u6d32\u575d\u5e97", "type": "\u5bbe\u9986"}, {"coord": {"location": {"lng": 111.30035417730322, "lat": 30.719618317348786}, "precise": 1, "confidence": 80, "comprehension": 100, "level": "\u95e8\u5740"}, "address": "\u4e1c\u5c71\u5927\u905366\u53f7", "city": "\u5b9c\u660c\u5e02", "name": "\u57ce\u5e02\u4fbf\u6377\u5b9c\u660c\u845b\u6d32\u575d\u5e97", "type": "\u5bbe\u9986"}, {"coord": {"location": {"lng": 111.30035417730322, "lat": 30.719618317348786}, "precise": 1, "confidence": 80, "comprehension": 100, "level": "\u95e8\u5740"}, "address": "\u4e1c\u5c71\u5927\u905366\u53f7", "city": "\u5b9c\u660c\u5e02", "name": "\u57ce\u5e02\u4fbf\u6377\u5b9c\u660c\u845b\u6d32\u575d\u5e97", "type": "\u5bbe\u9986"}, {"coord": {"location": {"lng": 111.30035417730322, "lat": 30.719618317348786}, "precise": 1, "confidence": 80, "comprehension": 100, "level": "\u95e8\u5740"}, "address": "\u4e1c\u5c71\u5927\u905366\u53f7", "city": "\u5b9c\u660c\u5e02", "name": "\u57ce\u5e02\u4fbf\u6377\u5b9c\u660c\u845b\u6d32\u575d\u5e97", "type": "\u5bbe\u9986"}, {"coord": {"location": {"lng": 115.07133992909212, "lat": 30.227930083771927}, "precise": 0, "confidence": 30, "comprehension": 15, "level": "\u9053\u8def"}, "address": "\u6e56\u6ee8\u5927\u9053\u65b0\u5929\u5730\u5546\u4e1a\u88571\u53f7\u697c", "city": "\u9ec4\u77f3\u5e02", "name": "\u57ce\u5e02\u4fbf\u6377\u9633\u65b0\u660e\u6708\u6e7e\u5e97", "type": "\u5bbe\u9986"}, {"coord": {"location": {"lng": 115.07133992909212, "lat": 30.227930083771927}, "precise": 0, "confidence": 30, "comprehension": 15, "level": "\u9053\u8def"}, "address": "\u6e56\u6ee8\u5927\u9053\u65b0\u5929\u5730\u5546\u4e1a\u88571\u53f7\u697c", "city": "\u9ec4\u77f3\u5e02", "name": "\u57ce\u5e02\u4fbf\u6377\u9633\u65b0\u660e\u6708\u6e7e\u5e97", "type": "\u5bbe\u9986"}, {"coord": {"location": {"lng": 115.07133992909212, "lat": 30.227930083771927}, "precise": 0, "confidence": 30, "comprehension": 15, "level": "\u9053\u8def"}, "address": "\u6e56\u6ee8\u5927\u9053\u65b0\u5929\u5730\u5546\u4e1a\u88571\u53f7\u697c", "city": "\u9ec4\u77f3\u5e02", "name": "\u57ce\u5e02\u4fbf\u6377\u9633\u65b0\u660e\u6708\u6e7e\u5e97", "type": "\u5bbe\u9986"}, {"coord": {"location": {"lng": 115.07133992909212, "lat": 30.227930083771927}, "precise": 0, "confidence": 30, "comprehension": 15, "level": "\u9053\u8def"}, "address": "\u6e56\u6ee8\u5927\u9053\u65b0\u5929\u5730\u5546\u4e1a\u88571\u53f7\u697c", "city": "\u9ec4\u77f3\u5e02", "name": "\u57ce\u5e02\u4fbf\u6377\u9633\u65b0\u660e\u6708\u6e7e\u5e97", "type": "\u5bbe\u9986"}, {"coord": {"location": {"lng": 115.07133992909212, "lat": 30.227930083771927}, "precise": 0, "confidence": 30, "comprehension": 15, "level": "\u9053\u8def"}, "address": "\u6e56\u6ee8\u5927\u9053\u65b0\u5929\u5730\u5546\u4e1a\u88571\u53f7\u697c", "city": "\u9ec4\u77f3\u5e02", "name": "\u57ce\u5e02\u4fbf\u6377\u9633\u65b0\u660e\u6708\u6e7e\u5e97", "type": "\u5bbe\u9986"}]